{
  "northeastRoadtrip": [
    {
      "name": "Union Level Ghost Town",
      "type": "urbex",
      "geolocalisation": [
        {
          "latitude": 36.71743524704777,
          "longitude": -78.23424994024258,
          "isApproximated": false
        }
      ]
    },
    {
      "name": "Historic Occoneechee Speedway Trailhead",
      "type": "walk",
      "geolocalisation": [
        {
          "latitude": 36.06987880808408,
          "longitude": -79.08541722251684,
          "isApproximated": false
        }
      ]
    },
    {
      "name": "North Carolina Museum of Art",
      "type": "museum",
      "geolocalisation": [
        {
          "latitude": 35.809887164327066,
          "longitude": -78.70258233597933,
          "isApproximated": false
        }
      ]
    },
    {
      "name": "Old Carbonton Dam",
      "type": "urbex",
      "geolocalisation": [
        {
          "latitude": 35.5194549101589,
          "longitude": -79.34760545637931,
          "isApproximated": false
        }
      ]
    },
    {
      "name": "Airborne & Special Operations Museum Foundation",
      "type": "museum",
      "geolocalisation": [
        {
          "latitude": 35.05602322921205,
          "longitude": -78.88514755610893,
          "isApproximated": false
        }
      ]
    },
    {
      "name": "Warbird Park",
      "type": "plane",
      "geolocalisation": [
        {
          "latitude": 33.66125453487128,
          "longitude": -78.92877211573845,
          "isApproximated": false
        }
      ]
    },
    {
      "name": "Myrtle Beach",
      "type": "beach",
      "geolocalisation": [
        {
          "latitude": 33.65814326613664,
          "longitude": -78.91708551183936,
          "isApproximated": false
        }
      ]
    },
    {
      "name": "Prince Frederick Church",
      "type": "urbex",
      "geolocalisation": [
        {
          "latitude": 33.505863390362734,
          "longitude": -79.18037561596547,
          "isApproximated": false
        }
      ]
    },
    {
      "name": "Palmetto Trail Head",
      "type": "walk",
      "geolocalisation": [
        {
          "latitude": 33.039851782271505,
          "longitude": -79.56130558739348,
          "isApproximated": false
        }
      ]
    },
    {
      "name": "Walnut Grove Plantation",
      "type": "urbex",
      "geolocalisation": [
        {
          "latitude": 33.03428884272814,
          "longitude": -79.57389504550147,
          "isApproximated": false
        }
      ]
    },
    {
      "name": "Mount Pleasant Pier",
      "type": "water",
      "geolocalisation": [
        {
          "latitude": 32.80197322318293,
          "longitude": -79.90603510308354,
          "isApproximated": false
        }
      ]
    },
    {
      "name": "Charleston City Market",
      "type": "building",
      "geolocalisation": [
        {
          "latitude": 32.780844194103814,
          "longitude": -79.9305649779522,
          "isApproximated": false
        }
      ]
    },
    {
      "name": "Philadelphia Alley",
      "type": "street",
      "geolocalisation": [
        {
          "latitude": 32.779595191204145,
          "longitude": -79.92879975485981,
          "isApproximated": false
        }
      ]
    },
    {
      "name": "Anastasia State Park",
      "type": "national-park",
      "geolocalisation": [
        {
          "latitude": 29.878872748203726,
          "longitude": -81.27485649197891,
          "isApproximated": false
        }
      ]
    },
    {
      "name": "Angel Oak Tree",
      "type": "place",
      "geolocalisation": [
        {
          "latitude": 32.71706118609704,
          "longitude": -80.08034890358897,
          "isApproximated": false
        }
      ]
    },
    {
      "name": "Apollo - Saturn V Center",
      "type": "museum",
      "geolocalisation": [
        {
          "latitude": 28.605348091019284,
          "longitude": -80.6697165623046,
          "isApproximated": false
        }
      ]
    },
    {
      "name": "Banana Creek Launch Viewing",
      "type": "photo",
      "geolocalisation": [
        {
          "latitude": 28.603779963362655,
          "longitude": -80.66814873905163,
          "isApproximated": false
        }
      ]
    },
    {
      "name": "Bayside Marketplace",
      "type": "building",
      "geolocalisation": [
        {
          "latitude": 25.778406193328482,
          "longitude": -80.18680131017604,
          "isApproximated": false
        }
      ]
    },
    {
      "name": "Blue Spring State Park",
      "type": "national-park",
      "geolocalisation": [
        {
          "latitude": 28.946704735738777,
          "longitude": -81.33892105257671,
          "isApproximated": false
        }
      ]
    },
    {
      "name": "Bulow Plantation Ruins Historic State Park",
      "type": "urbex",
      "geolocalisation": [
        {
          "latitude": 29.43454945782924,
          "longitude": -81.14267509366525,
          "isApproximated": false
        }
      ]
    },
    {
      "name": "Castillo de San Marcos National Monument",
      "type": "castle",
      "geolocalisation": [
        {
          "latitude": 29.89785244899548,
          "longitude": -81.3115187006933,
          "isApproximated": false
        }
      ]
    },
    {
      "name": "Collins Park",
      "type": "park",
      "geolocalisation": [
        {
          "latitude": 25.79716912151592,
          "longitude": -80.1291899091682,
          "isApproximated": false
        }
      ]
    },
    {
      "name": "Colonel Joe Kittinger Park",
      "type": "plane",
      "geolocalisation": [
        {
          "latitude": 28.539966816286366,
          "longitude": -81.3448908669002,
          "isApproximated": false
        }
      ]
    },
    {
      "name": "Colonial Park Cemetery",
      "type": "monument",
      "geolocalisation": [
        {
          "latitude": 32.07518360908106,
          "longitude": -81.08996801976157,
          "isApproximated": false
        }
      ]
    },
    {
      "name": "Driftwood Beach",
      "type": "beach",
      "geolocalisation": [
        {
          "latitude": 31.10337324194322,
          "longitude": -81.40394064346214,
          "isApproximated": false
        }
      ]
    },
    {
      "name": "Holocaust Memorial Miami Beach",
      "type": "monument",
      "geolocalisation": [
        {
          "latitude": 25.795488294574465,
          "longitude": -80.13621251023118,
          "isApproximated": false
        }
      ]
    },
    {
      "name": "Horton House",
      "type": "place",
      "geolocalisation": [
        {
          "latitude": 31.101782244468463,
          "longitude": -81.41464181950248,
          "isApproximated": false
        }
      ]
    },
    {
      "name": "Jekyll Island Amphitheater",
      "type": "urbex",
      "geolocalisation": [
        {
          "latitude": 31.065196081909054,
          "longitude": -81.42005383053859,
          "isApproximated": false
        }
      ]
    },
    {
      "name": "Jekyll Island Fishing Pier",
      "type": "port",
      "geolocalisation": [
        {
          "latitude": 31.11650934415583,
          "longitude": -81.4177542800453,
          "isApproximated": false
        }
      ]
    },
    {
      "name": "Jones Street",
      "type": "street",
      "geolocalisation": [
        {
          "latitude": 32.07285112019783,
          "longitude": -81.09593075083399,
          "isApproximated": false
        }
      ]
    },
    {
      "name": "Kennedy Space Center",
      "type": "museum",
      "geolocalisation": []
    },
    {
      "name": "King Street",
      "type": "street",
      "geolocalisation": [
        {
          "latitude": 32.780573631054715,
          "longitude": -79.93323211484262,
          "isApproximated": false
        }
      ]
    },
    {
      "name": "Miami Beach Ocean Walk",
      "type": "walk",
      "geolocalisation": [
        {
          "latitude": 25.795531950338844,
          "longitude": -80.12704046060904,
          "isApproximated": false
        }
      ]
    },
    {
      "name": "Miami Beach",
      "type": "beach",
      "geolocalisation": [
        {
          "latitude": 25.799729975576742,
          "longitude": -80.12501281665182,
          "isApproximated": false
        }
      ]
    },
    {
      "name": "Miami River Walk",
      "type": "walk",
      "geolocalisation": [
        {
          "latitude": 25.772277435899188,
          "longitude": -80.18507742088056,
          "isApproximated": false
        }
      ]
    },
    {
      "name": "Moss Park",
      "type": "national-park",
      "geolocalisation": [
        {
          "latitude": 28.377987059131158,
          "longitude": -81.19064251068905,
          "isApproximated": false
        }
      ]
    },
    {
      "name": "NAS Sanford Memorial",
      "type": "plane",
      "geolocalisation": [
        {
          "latitude": 28.7647327,
          "longitude": -81.2377345,
          "isApproximated": false
        }
      ]
    },
    {
      "name": "Old Sheldon Church Ruins",
      "type": "urbex",
      "geolocalisation": []
    },
    {
      "name": "Pineapple Fountain",
      "type": "water",
      "geolocalisation": [
        {
          "latitude": 32.77809140565642,
          "longitude": -79.92521451374985,
          "isApproximated": false
        }
      ]
    },
    {
      "name": "Rainbow Row",
      "type": "place",
      "geolocalisation": [
        {
          "latitude": 32.775355662525605,
          "longitude": -79.92729489364652,
          "isApproximated": false
        }
      ]
    },
    {
      "name": "River Street Savannah Georgia",
      "type": "walk",
      "geolocalisation": [
        {
          "latitude": 32.08168574563825,
          "longitude": -81.09026355234697,
          "isApproximated": false
        }
      ]
    },
    {
      "name": "River Street",
      "type": "street",
      "geolocalisation": [
        {
          "latitude": 32.082461121433056,
          "longitude": -81.09349031283503,
          "isApproximated": false
        }
      ]
    },
    {
      "name": "Savannah National Wildlife Refuge",
      "type": "national-park",
      "geolocalisation": [
        {
          "latitude": 32.22112653480309,
          "longitude": -81.11737163276943,
          "isApproximated": false
        }
      ]
    },
    {
      "name": "Savannah Wildlife Dr",
      "type": "street",
      "geolocalisation": [
        {
          "latitude": 32.16533972480734,
          "longitude": -81.11502722281388,
          "isApproximated": false
        }
      ]
    },
    {
      "name": "St. Andrew's Beach",
      "type": "beach",
      "geolocalisation": [
        {
          "latitude": 31.02104682098277,
          "longitude": -81.4344946755126,
          "isApproximated": false
        }
      ]
    },
    {
      "name": "The Cathedral Basilica of St. John the Baptist",
      "type": "religion",
      "geolocalisation": [
        {
          "latitude": 32.07342055924462,
          "longitude": -81.09114599782758,
          "isApproximated": false
        }
      ]
    },
    {
      "name": "Waterfront Park Pier",
      "type": "water",
      "geolocalisation": [
        {
          "latitude": 32.77926686306932,
          "longitude": -79.92390645865541,
          "isApproximated": false
        }
      ]
    },
    {
      "name": "Waterfront Park",
      "type": "park",
      "geolocalisation": [
        {
          "latitude": 32.779033445134765,
          "longitude": -79.92520083325252,
          "isApproximated": false
        }
      ]
    },
    {
      "name": "21c Museum Hotel Louisville",
      "type": "museum",
      "geolocalisation": [
        {
          "longitude": -85.76191337148008,
          "latitude": 38.256810254231745,
          "isApproximated": false
        }
      ]
    },
    {
      "name": "9-11 Memorial Pools",
      "type": "monument",
      "geolocalisation": [
        {
          "longitude": -74.01308641566324,
          "latitude": 40.71105327945111,
          "isApproximated": false
        },
        {
          "longitude": -74.01322262642312,
          "latitude": 40.712131312429435,
          "isApproximated": false
        }
      ]
    },
    {
      "name": "Abandoned 46 stylemaster sedan",
      "type": "urbex",
      "geolocalisation": [
        {
          "longitude": -76.36856335651866,
          "latitude": 44.82631074863878,
          "isApproximated": true
        }
      ]
    },
    {
      "name": "Abandoned Hartwell Railway",
      "type": "urbex",
      "geolocalisation": [
        {
          "longitude": -83.02281171973105,
          "latitude": 34.409594807275866,
          "isApproximated": true
        }
      ]
    },
    {
      "name": "Abandoned Thomas Iron Ruins",
      "type": "urbex",
      "geolocalisation": [
        {
          "longitude": -75.52310228866031,
          "latitude": 40.55311611823654,
          "isApproximated": true
        }
      ]
    },
    {
      "name": "Abandoned West Shore Drive Bridge",
      "type": "urbex",
      "geolocalisation": [
        {
          "longitude": -75.9211706,
          "latitude": 40.4705533,
          "isApproximated": false
        }
      ]
    },
    {
      "name": "Absolute Bagels",
      "type": "food",
      "geolocalisation": [
        {
          "longitude": -73.96740363441992,
          "latitude": 40.802537468438615,
          "isApproximated": false
        }
      ]
    },
    {
      "name": "Acorn Street",
      "type": "street",
      "geolocalisation": [
        {
          "longitude": -71.06888843892271,
          "latitude": 42.35761295622675,
          "isApproximated": false
        }
      ]
    },
    {
      "name": "Adams Mill Dams",
      "type": "urbex",
      "geolocalisation": [
        {
          "longitude": -72.58175963205687,
          "latitude": 41.91492229585143,
          "isApproximated": true
        }
      ]
    },
    {
      "name": "African Burial Ground National Monument",
      "type": "monument",
      "geolocalisation": [
        {
          "longitude": -74.00448074374384,
          "latitude": 40.71452034971196,
          "isApproximated": false
        }
      ]
    },
    {
      "name": "Air Mobility Command Museum",
      "type": "museum",
      "geolocalisation": [
        {
          "longitude": -75.45686104394318,
          "latitude": 39.11904501885529,
          "isApproximated": false
        }
      ]
    },
    {
      "name": "Air Power Park",
      "type": "plane",
      "geolocalisation": [
        {
          "longitude": -76.3664409,
          "latitude": 37.043327,
          "isApproximated": false
        }
      ]
    },
    {
      "name": "Algonquin Logging Museum",
      "type": "museum",
      "geolocalisation": [
        {
          "longitude": -78.2630809,
          "latitude": 45.5438012,
          "isApproximated": false
        }
      ]
    },
    {
      "name": "American Helicopter Museum and Education Center",
      "type": "museum",
      "geolocalisation": [
        {
          "longitude": -75.5788668570246,
          "latitude": 39.991858723706486,
          "isApproximated": false
        }
      ]
    },
    {
      "name": "Ancien pont de voie ferr\u00e9",
      "type": "urbex",
      "geolocalisation": [
        {
          "longitude": -64.69368080507256,
          "latitude": 48.32716559590623,
          "isApproximated": false
        }
      ]
    },
    {
      "name": "Ancienne papeterie de Shawinigan",
      "type": "urbex",
      "geolocalisation": [
        {
          "longitude": -72.763626705152,
          "latitude": 46.543270420538335,
          "isApproximated": false
        }
      ]
    },
    {
      "name": "Anne Heggtveit Ski Hill",
      "type": "urbex",
      "geolocalisation": [
        {
          "longitude": -75.7442279,
          "latitude": 45.3729929,
          "isApproximated": false
        }
      ]
    },
    {
      "name": "Antietam Iron Furnace Site and Antietam Village",
      "type": "urbex",
      "geolocalisation": [
        {
          "longitude": -77.7407813,
          "latitude": 39.4161715,
          "isApproximated": false
        }
      ]
    },
    {
      "name": "Appalachian Trail & C&O Canal Towpath",
      "type": "urbex",
      "geolocalisation": [
        {
          "longitude": -77.72630409869517,
          "latitude": 39.32413697047328,
          "isApproximated": false
        }
      ]
    },
    {
      "name": "Arabica New York Nolita",
      "type": "food",
      "geolocalisation": [
        {
          "longitude": -73.99383644331006,
          "latitude": 40.722521254533895,
          "isApproximated": false
        }
      ]
    },
    {
      "name": "Arlington House",
      "type": "building",
      "geolocalisation": [
        {
          "longitude": -77.07259634014082,
          "latitude": 38.88117701058478,
          "isApproximated": false
        }
      ]
    },
    {
      "name": "Arlington National Cemetery",
      "type": "monument",
      "geolocalisation": [
        {
          "longitude": -77.06916362272558,
          "latitude": 38.87391157570491,
          "isApproximated": false
        }
      ]
    },
    {
      "name": "Assateague Island National Seashore",
      "type": "national-park",
      "geolocalisation": [
        {
          "longitude": -75.14695046686917,
          "latitude": 38.22053822383833,
          "isApproximated": false
        }
      ]
    },
    {
      "name": "Audrey Hepburn by Tristan Eaton",
      "type": "art",
      "geolocalisation": [
        {
          "longitude": -73.99680410429808,
          "latitude": 40.72033235646449,
          "isApproximated": false
        }
      ]
    },
    {
      "name": "Austin Dam Memorial Park",
      "type": "urbex",
      "geolocalisation": [
        {
          "longitude": -78.08526204612647,
          "latitude": 41.65268222115482,
          "isApproximated": false
        }
      ]
    },
    {
      "name": "Aux Anciens Canadiens",
      "type": "food",
      "geolocalisation": [
        {
          "longitude": -71.20739123140447,
          "latitude": 46.81174025705013,
          "isApproximated": false
        }
      ]
    },
    {
      "name": "Avondale Railway Museum",
      "type": "museum",
      "geolocalisation": [
        {
          "longitude": -53.2037616,
          "latitude": 47.4072634,
          "isApproximated": false
        }
      ]
    },
    {
      "name": "Aylmer Hydro Ruins",
      "type": "urbex",
      "geolocalisation": [
        {
          "longitude": -75.7994955,
          "latitude": 45.3797984,
          "isApproximated": false
        }
      ]
    },
    {
      "name": "B&O Railroad Museum",
      "type": "museum",
      "geolocalisation": [
        {
          "longitude": -76.63259706941852,
          "latitude": 39.285452814442515,
          "isApproximated": false
        }
      ]
    },
    {
      "name": "Balaclava Saw Mill",
      "type": "urbex",
      "geolocalisation": [
        {
          "longitude": -77.09562544091831,
          "latitude": 45.382650179286,
          "isApproximated": true
        }
      ]
    },
    {
      "name": "Ball's Falls & Historic Village",
      "type": "water",
      "geolocalisation": [
        {
          "longitude": -79.3825595,
          "latitude": 43.1337597,
          "isApproximated": false
        }
      ]
    },
    {
      "name": "Bar Laitier La Banquise",
      "type": "food",
      "geolocalisation": [
        {
          "longitude": -64.47865445584202,
          "latitude": 48.83861541191014,
          "isApproximated": false
        }
      ]
    },
    {
      "name": "barBURITTO",
      "type": "food",
      "geolocalisation": [
        {
          "longitude": -78.90494573986282,
          "latitude": 43.88747923807032,
          "isApproximated": false
        }
      ]
    },
    {
      "name": "Battery 282",
      "type": "urbex",
      "geolocalisation": [
        {
          "longitude": -53.95018243372809,
          "latitude": 47.26734448543601,
          "isApproximated": true
        }
      ]
    },
    {
      "name": "Battery Keyes",
      "type": "urbex",
      "geolocalisation": [
        {
          "longitude": -70.2125478423958,
          "latitude": 43.62697709455867,
          "isApproximated": false
        }
      ]
    },
    {
      "name": "Battery Park",
      "type": "park",
      "geolocalisation": [
        {
          "longitude": -74.01535802019787,
          "latitude": 40.70292682977051,
          "isApproximated": false
        }
      ]
    },
    {
      "name": "Bayless Pulp and Papermill",
      "type": "urbex",
      "geolocalisation": [
        {
          "longitude": -78.08762856677922,
          "latitude": 41.640311106565015,
          "isApproximated": false
        }
      ]
    },
    {
      "name": "Belfast and Moosehead Lake Railroad",
      "type": "train",
      "geolocalisation": [
        {
          "longitude": -69.32208581259968,
          "latitude": 44.61520021654602,
          "isApproximated": false
        }
      ]
    },
    {
      "name": "Bell Island Airport",
      "type": "airport",
      "geolocalisation": [
        {
          "longitude": -52.97759974642987,
          "latitude": 47.63633844793797,
          "isApproximated": false
        }
      ]
    },
    {
      "name": "Bell Island Community Museum",
      "type": "museum",
      "geolocalisation": [
        {
          "longitude": -52.94937644497773,
          "latitude": 47.64637940644099,
          "isApproximated": false
        }
      ]
    },
    {
      "name": "Bell Island Lighthouse",
      "type": "lighthouse",
      "geolocalisation": [
        {
          "longitude": -52.91657986484185,
          "latitude": 47.65512117313573,
          "isApproximated": false
        }
      ]
    },
    {
      "name": "Belle Isle Hydroelectric Plant",
      "type": "urbex",
      "geolocalisation": [
        {
          "longitude": -77.45398721277691,
          "latitude": 37.52743393340679,
          "isApproximated": false
        }
      ]
    },
    {
      "name": "Belv\u00e9d\u00e8re de la Mine BC",
      "type": "photo",
      "geolocalisation": [
        {
          "longitude": -71.35681564507703,
          "latitude": 46.04146580506972,
          "isApproximated": false
        }
      ]
    },
    {
      "name": "Belv\u00e9d\u00e8re de Perc\u00e9",
      "type": "photo",
      "geolocalisation": [
        {
          "longitude": -64.22415941658136,
          "latitude": 48.52422703487851,
          "isApproximated": false
        }
      ]
    },
    {
      "name": "Belv\u00e9d\u00e8re de Pointe-Saint-Charles",
      "type": "photo",
      "geolocalisation": [
        {
          "longitude": -73.55615925069787,
          "latitude": 45.48209346034423,
          "isApproximated": false
        }
      ]
    },
    {
      "name": "Belv\u00e9d\u00e8re des Chutes de Shawinigan",
      "type": "photo",
      "geolocalisation": [
        {
          "longitude": -72.76301001511624,
          "latitude": 46.530127642563734,
          "isApproximated": false
        }
      ]
    },
    {
      "name": "Belv\u00e9d\u00e8re du Cap Bon-Ami",
      "type": "photo",
      "geolocalisation": [
        {
          "longitude": -64.22023720234205,
          "latitude": 48.80914266028056,
          "isApproximated": false
        }
      ]
    },
    {
      "name": "Belv\u00e9d\u00e8re du Mont-Saint-Alban",
      "type": "photo",
      "geolocalisation": [
        {
          "longitude": -64.22689360762548,
          "latitude": 48.81132778012091,
          "isApproximated": false
        }
      ]
    },
    {
      "name": "Belv\u00e9d\u00e8re du Quartier Mitchell",
      "type": "photo",
      "geolocalisation": [
        {
          "longitude": -71.30639912468071,
          "latitude": 46.07566925537955,
          "isApproximated": false
        }
      ]
    },
    {
      "name": "Berceau du Canada",
      "type": "place",
      "geolocalisation": [
        {
          "longitude": -64.48445409241036,
          "latitude": 48.82761033048571,
          "isApproximated": false
        }
      ]
    },
    {
      "name": "Berc\u00e9e - Microbrasserie & Restaurant",
      "type": "food",
      "geolocalisation": [
        {
          "longitude": -71.68537058614905,
          "latitude": 48.38503907646525,
          "isApproximated": false
        }
      ]
    },
    {
      "name": "Berlin Wall Sections",
      "type": "urbex",
      "geolocalisation": [
        {
          "longitude": -63.2603813717437,
          "latitude": 45.370630531067825,
          "isApproximated": false
        }
      ]
    },
    {
      "name": "Bicentennial Mall State Park",
      "type": "park",
      "geolocalisation": [
        {
          "longitude": -86.78758137451491,
          "latitude": 36.17084417843984,
          "isApproximated": false
        }
      ]
    },
    {
      "name": "Big Chute Marine Railway",
      "type": "train",
      "geolocalisation": [
        {
          "longitude": -79.67445859847776,
          "latitude": 44.88479059236743,
          "isApproximated": false
        }
      ]
    },
    {
      "name": "Big Papa Gyro",
      "type": "food",
      "geolocalisation": [
        {
          "longitude": -86.65514935193264,
          "latitude": 34.73655948354625,
          "isApproximated": false
        }
      ]
    },
    {
      "name": "Big Rusty By Thomas Dambo",
      "type": "art",
      "geolocalisation": [
        {
          "longitude": -74.8264840612567,
          "latitude": 39.97622186353217,
          "isApproximated": false
        }
      ]
    },
    {
      "name": "Bistro-Bar Le Brise Bise",
      "type": "food",
      "geolocalisation": [
        {
          "longitude": -64.48387678730258,
          "latitude": 48.829447421855996,
          "isApproximated": false
        }
      ]
    },
    {
      "name": "Bleecker Street Pizza",
      "type": "food",
      "geolocalisation": [
        {
          "longitude": -74.00341548867753,
          "latitude": 40.73219414413156,
          "isApproximated": false
        }
      ]
    },
    {
      "name": "Blomidon Provincial Park and Campground",
      "type": "national-park",
      "geolocalisation": [
        {
          "longitude": -64.34259965492976,
          "latitude": 45.26387930175345,
          "isApproximated": false
        }
      ]
    },
    {
      "name": "Blue Heron Mining Community",
      "type": "place",
      "geolocalisation": [
        {
          "longitude": -84.54779111650943,
          "latitude": 36.6713483051578,
          "isApproximated": false
        }
      ]
    },
    {
      "name": "Blue Heron Overlook",
      "type": "photo",
      "geolocalisation": [
        {
          "longitude": -84.54373142549645,
          "latitude": 36.67158230975506,
          "isApproximated": false
        }
      ]
    },
    {
      "name": "Bluestone Dam",
      "type": "water",
      "geolocalisation": [
        {
          "longitude": -80.88839835028325,
          "latitude": 37.641661549893534,
          "isApproximated": false
        }
      ]
    },
    {
      "name": "Bluewater Park",
      "type": "park",
      "geolocalisation": [
        {
          "longitude": -81.13705829024346,
          "latitude": 44.74423059663874,
          "isApproximated": false
        }
      ]
    },
    {
      "name": "BO Railroad Bridge 463",
      "type": "urbex",
      "geolocalisation": [
        {
          "longitude": -81.7038497,
          "latitude": 41.4956904,
          "isApproximated": false
        }
      ]
    },
    {
      "name": "Bond Street Warf",
      "type": "park",
      "geolocalisation": [
        {
          "longitude": -76.59485844338347,
          "latitude": 39.280278443238565,
          "isApproximated": false
        }
      ]
    },
    {
      "name": "Boott Cotton Mills Museum",
      "type": "museum",
      "geolocalisation": [
        {
          "longitude": -71.30743208259621,
          "latitude": 42.64760229533073,
          "isApproximated": false
        }
      ]
    },
    {
      "name": "Boston & Maine 410 Switcher Locomotive",
      "type": "train",
      "geolocalisation": [
        {
          "longitude": -71.3129834756099,
          "latitude": 42.64536544469099,
          "isApproximated": false
        }
      ]
    },
    {
      "name": "Boston Common",
      "type": "park",
      "geolocalisation": [
        {
          "longitude": -71.06570238738213,
          "latitude": 42.35510610515523,
          "isApproximated": false
        }
      ]
    },
    {
      "name": "Boston Public Library - Central Library",
      "type": "library",
      "geolocalisation": [
        {
          "longitude": -71.07818633356818,
          "latitude": 42.34930231225302,
          "isApproximated": false
        }
      ]
    },
    {
      "name": "Bottle cove",
      "type": "water",
      "geolocalisation": [
        {
          "longitude": -58.41106428767496,
          "latitude": 49.11633660327398,
          "isApproximated": false
        }
      ]
    },
    {
      "name": "Bowling Green",
      "type": "park",
      "geolocalisation": [
        {
          "longitude": -74.01369327122234,
          "latitude": 40.704961515948625,
          "isApproximated": false
        }
      ]
    },
    {
      "name": "Bowmanville Valley Conservation Area",
      "type": "park",
      "geolocalisation": [
        {
          "longitude": -78.70212242524786,
          "latitude": 43.92226585760256,
          "isApproximated": false
        }
      ]
    },
    {
      "name": "Brandywine Falls",
      "type": "water",
      "geolocalisation": [
        {
          "longitude": -81.5401077583407,
          "latitude": 41.276751957077536,
          "isApproximated": false
        }
      ]
    },
    {
      "name": "Brattleboro Retreat",
      "type": "urbex",
      "geolocalisation": [
        {
          "longitude": -72.56521900055783,
          "latitude": 42.85863118851769,
          "isApproximated": false
        }
      ]
    },
    {
      "name": "Bridge to nowhere at Hillandale Park",
      "type": "urbex",
      "geolocalisation": [
        {
          "longitude": -81.65885302933492,
          "latitude": 41.5541506285587,
          "isApproximated": true
        }
      ]
    },
    {
      "name": "Brockville Railway Tunnel",
      "type": "tunnel",
      "geolocalisation": [
        {
          "longitude": -75.68758883937316,
          "latitude": 44.594319772044244,
          "isApproximated": false
        }
      ]
    },
    {
      "name": "Brooklyn Bridge Park",
      "type": "park",
      "geolocalisation": [
        {
          "longitude": -73.99593520193937,
          "latitude": 40.70225841146834,
          "isApproximated": false
        }
      ]
    },
    {
      "name": "Buffalo City Hall",
      "type": "building",
      "geolocalisation": [
        {
          "longitude": -78.87935721561931,
          "latitude": 42.88663117153793,
          "isApproximated": false
        }
      ]
    },
    {
      "name": "Buffalo Naval Park",
      "type": "museum",
      "geolocalisation": [
        {
          "longitude": -78.87959234726529,
          "latitude": 42.87747994084148,
          "isApproximated": false
        }
      ]
    },
    {
      "name": "Bug Light",
      "type": "lighthouse",
      "geolocalisation": [
        {
          "longitude": -70.23522138275551,
          "latitude": 43.65561728490833,
          "isApproximated": false
        }
      ]
    },
    {
      "name": "Buggy Top Cave Trail",
      "type": "walk",
      "geolocalisation": [
        {
          "longitude": -85.92452173972127,
          "latitude": 35.11540946919373,
          "isApproximated": false
        }
      ]
    },
    {
      "name": "Bunkers Of Alvira",
      "type": "urbex",
      "geolocalisation": [
        {
          "longitude": -76.95914722430201,
          "latitude": 41.13604261521539,
          "isApproximated": false
        }
      ]
    },
    {
      "name": "Burntcoat Head Park",
      "type": "park",
      "geolocalisation": [
        {
          "longitude": -63.80703584136255,
          "latitude": 45.31123238927676,
          "isApproximated": false
        }
      ]
    },
    {
      "name": "Butter Pot Provincial Park",
      "type": "national-park",
      "geolocalisation": [
        {
          "longitude": -53.058255596693435,
          "latitude": 47.3901566474078,
          "isApproximated": false
        }
      ]
    },
    {
      "name": "Buttermilk Falls",
      "type": "water",
      "geolocalisation": [
        {
          "longitude": -76.5209845057566,
          "latitude": 42.41635360428185,
          "isApproximated": false
        }
      ]
    },
    {
      "name": "Cache Lake Historic Site",
      "type": "museum",
      "geolocalisation": [
        {
          "longitude": -78.59370472464079,
          "latitude": 45.55194533523474,
          "isApproximated": false
        }
      ]
    },
    {
      "name": "Camp 30",
      "type": "urbex",
      "geolocalisation": [
        {
          "longitude": -78.75091548424317,
          "latitude": 43.92760498405925,
          "isApproximated": true
        }
      ]
    },
    {
      "name": "Canadian Coast Guard Cutter Westfort",
      "type": "boat",
      "geolocalisation": [
        {
          "longitude": -80.58627847481553,
          "latitude": 44.60951288959705,
          "isApproximated": false
        }
      ]
    },
    {
      "name": "Canadian Forces Base Greenwood",
      "type": "airport",
      "geolocalisation": [
        {
          "longitude": -64.92590497365532,
          "latitude": 44.97808725125449,
          "isApproximated": false
        }
      ]
    },
    {
      "name": "Canal Walk Murals",
      "type": "art",
      "geolocalisation": [
        {
          "longitude": -77.43667892223553,
          "latitude": 37.533688801184766,
          "isApproximated": false
        }
      ]
    },
    {
      "name": "Cape Spear Lighthouse National Historic Site",
      "type": "lighthouse",
      "geolocalisation": [
        {
          "longitude": -52.620919629973834,
          "latitude": 47.52334055375169,
          "isApproximated": false
        }
      ]
    },
    {
      "name": "Captain James Cook National Historic Site",
      "type": "museum",
      "geolocalisation": [
        {
          "longitude": -57.96302691482051,
          "latitude": 48.95443012126655,
          "isApproximated": false
        }
      ]
    },
    {
      "name": "Cargill Grain Elevator",
      "type": "urbex",
      "geolocalisation": [
        {
          "longitude": -78.85650117248079,
          "latitude": 42.85600238688368,
          "isApproximated": false
        }
      ]
    },
    {
      "name": "Carrie Blast Furnaces National Historic Landmark",
      "type": "museum",
      "geolocalisation": [
        {
          "longitude": -79.88980409208882,
          "latitude": 40.413921471249125,
          "isApproximated": false
        }
      ]
    },
    {
      "name": "Cass Scenic Railroad",
      "type": "train",
      "geolocalisation": [
        {
          "longitude": -79.91330818818834,
          "latitude": 38.397585591686216,
          "isApproximated": false
        }
      ]
    },
    {
      "name": "Castle Clinton National Monument",
      "type": "castle",
      "geolocalisation": [
        {
          "longitude": -74.01681997915789,
          "latitude": 40.70345508051665,
          "isApproximated": false
        }
      ]
    },
    {
      "name": "Castle Craig",
      "type": "castle",
      "geolocalisation": [
        {
          "longitude": -72.8354913133666,
          "latitude": 41.5565907633401,
          "isApproximated": false
        }
      ]
    },
    {
      "name": "Cathedral of Learning",
      "type": "building",
      "geolocalisation": [
        {
          "longitude": -79.95357436922717,
          "latitude": 40.444386705869555,
          "isApproximated": false
        }
      ]
    },
    {
      "name": "Cave of the Winds",
      "type": "water",
      "geolocalisation": [
        {
          "longitude": -79.07135380153558,
          "latitude": 43.082283371723896,
          "isApproximated": false
        }
      ]
    },
    {
      "name": "Centennial Park",
      "type": "park",
      "geolocalisation": [
        {
          "longitude": -86.81272754454865,
          "latitude": 36.14894376108987,
          "isApproximated": false
        }
      ]
    },
    {
      "name": "Central Park",
      "type": "park",
      "geolocalisation": [
        {
          "longitude": -73.9658765904397,
          "latitude": 40.78266250600849,
          "isApproximated": false
        }
      ]
    },
    {
      "name": "Central Railroad of New Jersey Terminal",
      "type": "urbex",
      "geolocalisation": [
        {
          "longitude": -74.03733358536064,
          "latitude": 40.70741302895558,
          "isApproximated": false
        }
      ]
    },
    {
      "name": "Charging Bull",
      "type": "art",
      "geolocalisation": [
        {
          "longitude": -74.01385899037761,
          "latitude": 40.704559106380195,
          "isApproximated": false
        }
      ]
    },
    {
      "name": "Charles Daley Park",
      "type": "park",
      "geolocalisation": [
        {
          "longitude": -79.32314620495632,
          "latitude": 43.18135234553134,
          "isApproximated": false
        }
      ]
    },
    {
      "name": "Charlestown Naval Shipyard Park",
      "type": "park",
      "geolocalisation": [
        {
          "longitude": -71.05328273243265,
          "latitude": 42.3742426639451,
          "isApproximated": false
        }
      ]
    },
    {
      "name": "Chester Hill Lookout",
      "type": "photo",
      "geolocalisation": [
        {
          "longitude": -79.3620484,
          "latitude": 43.6811815,
          "isApproximated": false
        }
      ]
    },
    {
      "name": "Chez Gaston",
      "type": "food",
      "geolocalisation": [
        {
          "longitude": -71.25224554583451,
          "latitude": 46.8157656476185,
          "isApproximated": false
        }
      ]
    },
    {
      "name": "Chincoteague National Wildlife Refuge",
      "type": "national-park",
      "geolocalisation": [
        {
          "longitude": -75.35600624861603,
          "latitude": 37.90878011285209,
          "isApproximated": false
        }
      ]
    },
    {
      "name": "Chrysler Building",
      "type": "building",
      "geolocalisation": [
        {
          "longitude": -73.97550234695089,
          "latitude": 40.75162099316996,
          "isApproximated": false
        }
      ]
    },
    {
      "name": "Chrysler Museum of Art",
      "type": "museum",
      "geolocalisation": [
        {
          "longitude": -76.29306804022997,
          "latitude": 36.85638894029227,
          "isApproximated": false
        }
      ]
    },
    {
      "name": "Chute Sainte-Anne",
      "type": "water",
      "geolocalisation": [
        {
          "longitude": -66.12441271528952,
          "latitude": 48.940592737934075,
          "isApproximated": false
        }
      ]
    },
    {
      "name": "Cincinnati Union Terminal",
      "type": "museum",
      "geolocalisation": [
        {
          "longitude": -84.53730283520963,
          "latitude": 39.10988190466481,
          "isApproximated": false
        }
      ]
    },
    {
      "name": "City Hall Park",
      "type": "park",
      "geolocalisation": [
        {
          "longitude": -74.00644056635079,
          "latitude": 40.71238942230517,
          "isApproximated": false
        }
      ]
    },
    {
      "name": "Cleveland Trust Company Building",
      "type": "building",
      "geolocalisation": [
        {
          "longitude": -81.68618373578488,
          "latitude": 41.500149534220185,
          "isApproximated": false
        }
      ]
    },
    {
      "name": "Clinton Tunnel",
      "type": "urbex",
      "geolocalisation": [
        {
          "longitude": -71.71144574644192,
          "latitude": 42.4454668890285,
          "isApproximated": true
        }
      ]
    },
    {
      "name": "Coastal Battery",
      "type": "place",
      "geolocalisation": [
        {
          "longitude": -52.92659121118542,
          "latitude": 47.630385730229314,
          "isApproximated": false
        }
      ]
    },
    {
      "name": "Collect Pond Park",
      "type": "park",
      "geolocalisation": [
        {
          "longitude": -74.00187954293314,
          "latitude": 40.71627785631453,
          "isApproximated": false
        }
      ]
    },
    {
      "name": "Columbus Park",
      "type": "park",
      "geolocalisation": [
        {
          "longitude": -73.98984262999772,
          "latitude": 40.693819726344366,
          "isApproximated": false
        }
      ]
    },
    {
      "name": "Command Bunker",
      "type": "urbex",
      "geolocalisation": [
        {
          "longitude": -53.923481088234176,
          "latitude": 47.291126770660014,
          "isApproximated": true
        }
      ]
    },
    {
      "name": "Concho Rim Overlook",
      "type": "photo",
      "geolocalisation": [
        {
          "longitude": -81.08607516599689,
          "latitude": 37.96720135821327,
          "isApproximated": false
        }
      ]
    },
    {
      "name": "Concrete City",
      "type": "urbex",
      "geolocalisation": [
        {
          "longitude": -75.97605251605236,
          "latitude": 41.18922113439874,
          "isApproximated": false
        }
      ]
    },
    {
      "name": "Contoocook Railroad Museum and Visitor Center",
      "type": "train",
      "geolocalisation": [
        {
          "longitude": -71.7130933,
          "latitude": 43.2226684,
          "isApproximated": false
        }
      ]
    },
    {
      "name": "Control Tower - Historical Naval Air Station South Weymouth",
      "type": "urbex",
      "geolocalisation": [
        {
          "longitude": -70.94524383049301,
          "latitude": 42.14441396880412,
          "isApproximated": false
        }
      ]
    },
    {
      "name": "Coplay Cement Company Kilns",
      "type": "place",
      "geolocalisation": [
        {
          "longitude": -75.49590349047007,
          "latitude": 40.676778451085966,
          "isApproximated": false
        }
      ]
    },
    {
      "name": "Cordelia Park",
      "type": "park",
      "geolocalisation": [
        {
          "longitude": -80.81750873842599,
          "latitude": 35.236470916947404,
          "isApproximated": false
        }
      ]
    },
    {
      "name": "Cowan Railroad Museum",
      "type": "museum",
      "geolocalisation": [
        {
          "longitude": -86.0104278,
          "latitude": 35.1636612,
          "isApproximated": false
        }
      ]
    },
    {
      "name": "Crack Is Wack Mural",
      "type": "art",
      "geolocalisation": [
        {
          "longitude": -73.93181828218633,
          "latitude": 40.80473458534904,
          "isApproximated": false
        }
      ]
    },
    {
      "name": "Criollas Baked Empanadas",
      "type": "food",
      "geolocalisation": [
        {
          "longitude": -73.98482582088003,
          "latitude": 40.76378431969184,
          "isApproximated": false
        }
      ]
    },
    {
      "name": "Crook Point Bascule Bridge",
      "type": "urbex",
      "geolocalisation": [
        {
          "longitude": -71.3851805405044,
          "latitude": 41.82385961417698,
          "isApproximated": false
        }
      ]
    },
    {
      "name": "Crooked Slide Park",
      "type": "water",
      "geolocalisation": [
        {
          "longitude": -77.60298542975748,
          "latitude": 45.38417473758185,
          "isApproximated": false
        }
      ]
    },
    {
      "name": "Cruiser Olympia",
      "type": "boat",
      "geolocalisation": [
        {
          "longitude": -75.14099326164259,
          "latitude": 39.943560436961,
          "isApproximated": false
        }
      ]
    },
    {
      "name": "Cuyahoga Valley National Park",
      "type": "national-park",
      "geolocalisation": [
        {
          "longitude": -81.56809665954607,
          "latitude": 41.28069370566929,
          "isApproximated": false
        }
      ]
    },
    {
      "name": "Darlington Provincial Park",
      "type": "national-park",
      "geolocalisation": [
        {
          "longitude": -78.77932694327332,
          "latitude": 43.87252476407868,
          "isApproximated": false
        }
      ]
    },
    {
      "name": "Dave's Hot Chicken",
      "type": "food",
      "geolocalisation": [
        {
          "longitude": -71.06563857744115,
          "latitude": 42.351279869294494,
          "isApproximated": false
        }
      ]
    },
    {
      "name": "De Oppresso Liber Horse Soldier",
      "type": "monument",
      "geolocalisation": [
        {
          "longitude": -74.01411332540621,
          "latitude": 40.710428823822255,
          "isApproximated": false
        }
      ]
    },
    {
      "name": "Depot Harbour",
      "type": "urbex",
      "geolocalisation": [
        {
          "longitude": -80.0943339,
          "latitude": 45.3193627,
          "isApproximated": false
        }
      ]
    },
    {
      "name": "Dinosaur (Pigeon Statue)",
      "type": "art",
      "geolocalisation": [
        {
          "longitude": -74.001014227584,
          "latitude": 40.75204347857305,
          "isApproximated": false
        }
      ]
    },
    {
      "name": "Douglas XA3D-1 Skywarrior",
      "type": "plane",
      "geolocalisation": [
        {
          "longitude": -74.33756510687147,
          "latitude": 42.99399387162093,
          "isApproximated": false
        }
      ]
    },
    {
      "name": "Doyers Street",
      "type": "street",
      "geolocalisation": [
        {
          "longitude": -73.99794311265786,
          "latitude": 40.71435208384162,
          "isApproximated": false
        }
      ]
    },
    {
      "name": "Dreams of Hyperion Sculpture by Bruce Williams",
      "type": "art",
      "geolocalisation": [
        {
          "longitude": -73.99368025002356,
          "latitude": 40.72659907661199,
          "isApproximated": false
        }
      ]
    },
    {
      "name": "Dry Dock 1",
      "type": "water",
      "geolocalisation": [
        {
          "longitude": -71.05543450889333,
          "latitude": 42.3732951475252,
          "isApproximated": false
        }
      ]
    },
    {
      "name": "Dumbo - Manhattan Bridge View",
      "type": "photo",
      "geolocalisation": [
        {
          "longitude": -73.98956879866115,
          "latitude": 40.70331459849191,
          "isApproximated": false
        }
      ]
    },
    {
      "name": "Dungeon Provincial Park",
      "type": "national-park",
      "geolocalisation": [
        {
          "longitude": -53.08421884403988,
          "latitude": 48.66683363097718,
          "isApproximated": false
        }
      ]
    },
    {
      "name": "East Liberty Presbyterian Church",
      "type": "religion",
      "geolocalisation": [
        {
          "longitude": -79.92508742844242,
          "latitude": 40.46090296211156,
          "isApproximated": false
        }
      ]
    },
    {
      "name": "East River Esplanade",
      "type": "walk",
      "geolocalisation": [
        {
          "longitude": -74.00780504752477,
          "latitude": 40.70286150599111,
          "isApproximated": false
        }
      ]
    },
    {
      "name": "Eastern State Penitentiary",
      "type": "museum",
      "geolocalisation": [
        {
          "longitude": -75.17271844848314,
          "latitude": 39.96830330795491,
          "isApproximated": false
        }
      ]
    },
    {
      "name": "Eckley Miners' Village",
      "type": "urbex",
      "geolocalisation": [
        {
          "longitude": -75.8560537669911,
          "latitude": 40.99521531199759,
          "isApproximated": false
        }
      ]
    },
    {
      "name": "Edward Smith Property Mine",
      "type": "part2",
      "geolocalisation": [
        {
          "longitude": -76.27060151641653,
          "latitude": 44.813300979929586,
          "isApproximated": false
        }
      ]
    },
    {
      "name": "Eileen's Special Cheesecake",
      "type": "food",
      "geolocalisation": [
        {
          "longitude": -73.9972418002898,
          "latitude": 40.72157583451181,
          "isApproximated": false
        }
      ]
    },
    {
      "name": "Eingang Promenade",
      "type": "walk",
      "geolocalisation": [
        {
          "longitude": -73.9957527805262,
          "latitude": 40.69979405437369,
          "isApproximated": false
        }
      ]
    },
    {
      "name": "Ekiben",
      "type": "food",
      "geolocalisation": [
        {
          "longitude": -76.59453511452027,
          "latitude": 39.285647729059285,
          "isApproximated": false
        }
      ]
    },
    {
      "name": "El Jefe's Taqueria",
      "type": "food",
      "geolocalisation": [
        {
          "longitude": -71.06499415152204,
          "latitude": 42.352295720124296,
          "isApproximated": false
        }
      ]
    },
    {
      "name": "Elfreth's Alley",
      "type": "street",
      "geolocalisation": [
        {
          "longitude": -75.14247204221354,
          "latitude": 39.95278182303311,
          "isApproximated": false
        }
      ]
    },
    {
      "name": "Ellis Island Immigrant Building",
      "type": "museum",
      "geolocalisation": [
        {
          "longitude": -74.0395588406712,
          "latitude": 40.69913025118875,
          "isApproximated": false
        }
      ]
    },
    {
      "name": "Empire Fulton Ferry",
      "type": "park",
      "geolocalisation": [
        {
          "longitude": -73.99321402708829,
          "latitude": 40.70425895978635,
          "isApproximated": false
        }
      ]
    },
    {
      "name": "Empty Sky Memorial",
      "type": "monument",
      "geolocalisation": [
        {
          "longitude": -74.03493144393931,
          "latitude": 40.7082401051139,
          "isApproximated": false
        }
      ]
    },
    {
      "name": "Eternal Flame Falls",
      "type": "place",
      "geolocalisation": [
        {
          "longitude": -78.75156082899949,
          "latitude": 42.70169732284352,
          "isApproximated": false
        }
      ]
    },
    {
      "name": "Falafel Inc",
      "type": "food",
      "geolocalisation": [
        {
          "longitude": -77.02746786333874,
          "latitude": 38.88142759746856,
          "isApproximated": false
        }
      ]
    },
    {
      "name": "Fall River Heritage State Park",
      "type": "park",
      "geolocalisation": [
        {
          "longitude": -71.16057318556213,
          "latitude": 41.70541480323373,
          "isApproximated": false
        }
      ]
    },
    {
      "name": "Faneuil Hall Marketplace",
      "type": "building",
      "geolocalisation": [
        {
          "longitude": -71.05511768786769,
          "latitude": 42.360202987638615,
          "isApproximated": false
        }
      ]
    },
    {
      "name": "Fells Point",
      "type": "street",
      "geolocalisation": [
        {
          "longitude": -76.59351794086449,
          "latitude": 39.28348734098299,
          "isApproximated": false
        }
      ]
    },
    {
      "name": "Five Islands Provincial Park",
      "type": "national-park",
      "geolocalisation": [
        {
          "longitude": -64.05259707225758,
          "latitude": 45.396169216986046,
          "isApproximated": false
        }
      ]
    },
    {
      "name": "Flatiron Building",
      "type": "building",
      "geolocalisation": [
        {
          "longitude": -73.98973473991529,
          "latitude": 40.74103587241016,
          "isApproximated": false
        }
      ]
    },
    {
      "name": "Forest Mills Falls",
      "type": "water",
      "geolocalisation": [
        {
          "longitude": -77.04689033577614,
          "latitude": 44.33426650243892,
          "isApproximated": false
        }
      ]
    },
    {
      "name": "Forsyth Mine",
      "type": "cave",
      "geolocalisation": [
        {
          "longitude": -75.78836664767283,
          "latitude": 45.47458530050231,
          "isApproximated": false
        }
      ]
    },
    {
      "name": "Fort Allen Park",
      "type": "park",
      "geolocalisation": [
        {
          "longitude": -70.2406142777553,
          "latitude": 43.665398628765125,
          "isApproximated": false
        }
      ]
    },
    {
      "name": "Fort Amherst",
      "type": "lighthouse",
      "geolocalisation": [
        {
          "longitude": -52.680405650174215,
          "latitude": 47.56352010280457,
          "isApproximated": false
        }
      ]
    },
    {
      "name": "Fort Baldwin State Historic Site",
      "type": "urbex",
      "geolocalisation": [
        {
          "longitude": -69.78870840847485,
          "latitude": 43.752997405342455,
          "isApproximated": false
        }
      ]
    },
    {
      "name": "Fort Negley",
      "type": "castle",
      "geolocalisation": [
        {
          "longitude": -86.7746562270699,
          "latitude": 36.14501152794503,
          "isApproximated": false
        }
      ]
    },
    {
      "name": "Fort Oxford",
      "type": "urbex",
      "geolocalisation": [
        {
          "longitude": -60.33103235828294,
          "latitude": 46.377228973821666,
          "isApproximated": true
        }
      ]
    },
    {
      "name": "Fort Petrie Military Museum",
      "type": "museum",
      "geolocalisation": [
        {
          "longitude": -60.15301987885703,
          "latitude": 46.24971422762101,
          "isApproximated": false
        }
      ]
    },
    {
      "name": "Fort Popham State Historic Site",
      "type": "urbex",
      "geolocalisation": [
        {
          "longitude": -69.78359456290265,
          "latitude": 43.754985746808124,
          "isApproximated": false
        }
      ]
    },
    {
      "name": "Fort P\u00e9ninsule",
      "type": "urbex",
      "geolocalisation": [
        {
          "longitude": -64.39702153041154,
          "latitude": 48.85344096457543,
          "isApproximated": false
        }
      ]
    },
    {
      "name": "Frank's Culvert",
      "type": "cave",
      "geolocalisation": [
        {
          "longitude": -76.4283334,
          "latitude": 44.5077918,
          "isApproximated": false
        }
      ]
    },
    {
      "name": "Frederick Douglass-Isaac Myers Maritime Park",
      "type": "park",
      "geolocalisation": [
        {
          "longitude": -76.59615754407669,
          "latitude": 39.27958467735054,
          "isApproximated": false
        }
      ]
    },
    {
      "name": "Fundy Tidal Interpretive Centre",
      "type": "urbex",
      "geolocalisation": [
        {
          "longitude": -63.45985945789094,
          "latitude": 45.25057818104095,
          "isApproximated": false
        }
      ]
    },
    {
      "name": "Gage Park",
      "type": "park",
      "geolocalisation": [
        {
          "longitude": -79.8286770792762,
          "latitude": 43.24203468363969,
          "isApproximated": false
        }
      ]
    },
    {
      "name": "Gazela",
      "type": "boat",
      "geolocalisation": [
        {
          "longitude": -75.13998690204394,
          "latitude": 39.94475685488264,
          "isApproximated": false
        }
      ]
    },
    {
      "name": "General George Patton Museum Of Leadership",
      "type": "museum",
      "geolocalisation": [
        {
          "longitude": -85.97409942343599,
          "latitude": 37.896511974429785,
          "isApproximated": false
        }
      ]
    },
    {
      "name": "General Grant National Memorial",
      "type": "monument",
      "geolocalisation": [
        {
          "longitude": -73.96309019080357,
          "latitude": 40.81340896719994,
          "isApproximated": false
        }
      ]
    },
    {
      "name": "Genoa Park",
      "type": "park",
      "geolocalisation": [
        {
          "longitude": -83.00481593557497,
          "latitude": 39.9599755081872,
          "isApproximated": false
        }
      ]
    },
    {
      "name": "George Peabody Library",
      "type": "building",
      "geolocalisation": [
        {
          "longitude": -76.61502938596506,
          "latitude": 39.29726910944235,
          "isApproximated": false
        }
      ]
    },
    {
      "name": "Glade Creek Grist Mill",
      "type": "building",
      "geolocalisation": [
        {
          "longitude": -80.9468543524712,
          "latitude": 37.979444723957954,
          "isApproximated": false
        }
      ]
    },
    {
      "name": "Glady Tunnel",
      "type": "urbex",
      "geolocalisation": [
        {
          "longitude": -79.6669773992946,
          "latitude": 38.69487503610826,
          "isApproximated": true
        }
      ]
    },
    {
      "name": "Glendale Avenue Bridge",
      "type": "bridge",
      "geolocalisation": [
        {
          "longitude": -79.19233211559161,
          "latitude": 43.14531101114543,
          "isApproximated": false
        }
      ]
    },
    {
      "name": "Glenn H. Curtiss Aviation Museum",
      "type": "museum",
      "geolocalisation": [
        {
          "longitude": -77.23297345179127,
          "latitude": 42.39866580971957,
          "isApproximated": false
        }
      ]
    },
    {
      "name": "Goddard Mansion",
      "type": "urbex",
      "geolocalisation": [
        {
          "longitude": -70.21419062233575,
          "latitude": 43.62647479401326,
          "isApproximated": false
        }
      ]
    },
    {
      "name": "Golden Tenders",
      "type": "food",
      "geolocalisation": [
        {
          "longitude": -79.8290820267736,
          "latitude": 43.24769650359683,
          "isApproximated": false
        }
      ]
    },
    {
      "name": "Grafiti alley",
      "type": "art",
      "geolocalisation": [
        {
          "longitude": -76.61912102863785,
          "latitude": 39.31152015119553,
          "isApproximated": false
        }
      ]
    },
    {
      "name": "Grand Central",
      "type": "building",
      "geolocalisation": [
        {
          "longitude": -73.97722797516252,
          "latitude": 40.752721723202775,
          "isApproximated": false
        }
      ]
    },
    {
      "name": "Grand Falls",
      "type": "water",
      "geolocalisation": [
        {
          "longitude": -67.7394461631775,
          "latitude": 47.05146448759424,
          "isApproximated": false
        }
      ]
    },
    {
      "name": "Grand narrows bridge",
      "type": "urbex",
      "geolocalisation": [
        {
          "longitude": -60.79715807632102,
          "latitude": 45.95884398226569,
          "isApproximated": false
        }
      ]
    },
    {
      "name": "Grande Hermine",
      "type": "urbex",
      "geolocalisation": [
        {
          "longitude": -79.29894290607292,
          "latitude": 43.27870543801355,
          "isApproximated": true
        }
      ]
    },
    {
      "name": "Grandview Overlook",
      "type": "photo",
      "geolocalisation": [
        {
          "longitude": -80.01138270384793,
          "latitude": 40.434463591028994,
          "isApproximated": false
        }
      ]
    },
    {
      "name": "Great Lakes Science Center",
      "type": "museum",
      "geolocalisation": [
        {
          "longitude": -81.69664579996181,
          "latitude": 41.50741977031743,
          "isApproximated": false
        }
      ]
    },
    {
      "name": "Great Molasses Flood Plaque",
      "type": "text",
      "geolocalisation": [
        {
          "longitude": -71.05566462271733,
          "latitude": 42.36851624698725,
          "isApproximated": false
        }
      ]
    },
    {
      "name": "Great Shiplock Park",
      "type": "bridge",
      "geolocalisation": [
        {
          "longitude": -77.42156811105195,
          "latitude": 37.52678730786706,
          "isApproximated": false
        }
      ]
    },
    {
      "name": "Grebe's Nest",
      "type": "walk",
      "geolocalisation": [
        {
          "longitude": -52.9794254222993,
          "latitude": 47.64005429104937,
          "isApproximated": false
        }
      ]
    },
    {
      "name": "Green Acres Park",
      "type": "park",
      "geolocalisation": [
        {
          "longitude": -74.8283527,
          "latitude": 40.06859,
          "isApproximated": false
        }
      ]
    },
    {
      "name": "Green Bank Observatory",
      "type": "place",
      "geolocalisation": [
        {
          "longitude": -79.81917784574584,
          "latitude": 38.43139856697505,
          "isApproximated": false
        }
      ]
    },
    {
      "name": "Greenacre Park",
      "type": "park",
      "geolocalisation": [
        {
          "longitude": -73.96928066733483,
          "latitude": 40.756229362234215,
          "isApproximated": false
        }
      ]
    },
    {
      "name": "Gros Morne Mountain Hiking Trail",
      "type": "walk",
      "geolocalisation": [
        {
          "longitude": -57.83223734178165,
          "latitude": 49.56581428555655,
          "isApproximated": false
        }
      ]
    },
    {
      "name": "Haliburton Rotary Locomotive",
      "type": "train",
      "geolocalisation": [
        {
          "longitude": -78.52217786012145,
          "latitude": 45.04302576152614,
          "isApproximated": false
        }
      ]
    },
    {
      "name": "Halifax Explosion Memorial Bell Tower",
      "type": "monument",
      "geolocalisation": [
        {
          "longitude": -63.60120285144841,
          "latitude": 44.665829323561745,
          "isApproximated": false
        }
      ]
    },
    {
      "name": "Halifax Waterfront",
      "type": "museum",
      "geolocalisation": [
        {
          "longitude": -63.569207267666854,
          "latitude": 44.64580681630453,
          "isApproximated": false
        }
      ]
    },
    {
      "name": "Harbor Point Overlook",
      "type": "photo",
      "geolocalisation": [
        {
          "longitude": -76.59818392392891,
          "latitude": 39.27903091179066,
          "isApproximated": false
        }
      ]
    },
    {
      "name": "Harbourside Park",
      "type": "park",
      "geolocalisation": [
        {
          "longitude": -52.70309268082153,
          "latitude": 47.567197614544774,
          "isApproximated": false
        }
      ]
    },
    {
      "name": "Harcourt Graphite Mine",
      "type": "cave",
      "geolocalisation": [
        {
          "longitude": -78.168699,
          "latitude": 45.0724435,
          "isApproximated": false
        }
      ]
    },
    {
      "name": "Harpers Ferry National Historical Park",
      "type": "park",
      "geolocalisation": [
        {
          "longitude": -77.7569632096948,
          "latitude": 39.31577178221702,
          "isApproximated": false
        }
      ]
    },
    {
      "name": "Hattie B's Hot Chicken",
      "type": "food",
      "geolocalisation": [
        {
          "longitude": -86.85082521905224,
          "latitude": 36.15166015904228,
          "isApproximated": false
        }
      ]
    },
    {
      "name": "Hawk Lake Log Chute",
      "type": "water",
      "geolocalisation": [
        {
          "longitude": -78.7431664,
          "latitude": 45.1424376,
          "isApproximated": false
        }
      ]
    },
    {
      "name": "Heavyweight passenger car",
      "type": "urbex",
      "geolocalisation": [
        {
          "longitude": -82.61543226530117,
          "latitude": 36.67153563703054,
          "isApproximated": true
        }
      ]
    },
    {
      "name": "High Line",
      "type": "walk",
      "geolocalisation": [
        {
          "longitude": -74.00480781898581,
          "latitude": 40.74796791282977,
          "isApproximated": false
        }
      ]
    },
    {
      "name": "Hillsborough Gypsum Plant Silos",
      "type": "urbex",
      "geolocalisation": [
        {
          "longitude": -64.63039594609945,
          "latitude": 45.92387914341287,
          "isApproximated": false
        }
      ]
    },
    {
      "name": "Historic Brushy Mountain State Penitentiary",
      "type": "museum",
      "geolocalisation": [
        {
          "longitude": -84.4549888853001,
          "latitude": 36.1072363806485,
          "isApproximated": false
        }
      ]
    },
    {
      "name": "HMS Calypso",
      "type": "urbex",
      "geolocalisation": [
        {
          "longitude": -55.018789730175506,
          "latitude": 49.29481286927117,
          "isApproximated": false
        }
      ]
    },
    {
      "name": "Hocking Hills State Park Center",
      "type": "building",
      "geolocalisation": [
        {
          "longitude": -82.54173528410877,
          "latitude": 39.43453492866549,
          "isApproximated": false
        }
      ]
    },
    {
      "name": "Hocking Hills State Park",
      "type": "park",
      "geolocalisation": [
        {
          "longitude": -82.54827697347633,
          "latitude": 39.43352064587758,
          "isApproximated": false
        }
      ]
    },
    {
      "name": "Hocking Valley Scenic Railway",
      "type": "train",
      "geolocalisation": [
        {
          "longitude": -82.23363550310322,
          "latitude": 39.458560654806206,
          "isApproximated": false
        }
      ]
    },
    {
      "name": "Hog Hill Trail",
      "type": "urbex",
      "geolocalisation": [
        {
          "longitude": -71.80630275907234,
          "latitude": 42.40853674060328,
          "isApproximated": false
        }
      ]
    },
    {
      "name": "Honky Tonk Highway",
      "type": "street",
      "geolocalisation": [
        {
          "longitude": -86.77845650364897,
          "latitude": 36.16040878362493,
          "isApproximated": false
        }
      ]
    },
    {
      "name": "Hoosac Tunnel",
      "type": "tunnel",
      "geolocalisation": [
        {
          "longitude": -72.9979747,
          "latitude": 42.6752514,
          "isApproximated": false
        }
      ]
    },
    {
      "name": "Hopewell Rocks Provincial Park",
      "type": "national-park",
      "geolocalisation": [
        {
          "longitude": -64.57849726578522,
          "latitude": 45.81719066372072,
          "isApproximated": false
        }
      ]
    },
    {
      "name": "Horwood Lumber Co. Pulp Mill and Hydro Facility",
      "type": "urbex",
      "geolocalisation": [
        {
          "longitude": -54.7220983191669,
          "latitude": 49.246834750578685,
          "isApproximated": true
        }
      ]
    },
    {
      "name": "Hubbard Park",
      "type": "park",
      "geolocalisation": [
        {
          "longitude": -72.83592293555427,
          "latitude": 41.54927501550889,
          "isApproximated": false
        }
      ]
    },
    {
      "name": "Hydroelectric Power Plant",
      "type": "urbex",
      "geolocalisation": [
        {
          "longitude": -77.62399304793621,
          "latitude": 39.31742942517294,
          "isApproximated": true
        }
      ]
    },
    {
      "name": "Independence National Historical Park",
      "type": "park",
      "geolocalisation": [
        {
          "longitude": -75.14972987284132,
          "latitude": 39.949529933498845,
          "isApproximated": false
        }
      ]
    },
    {
      "name": "Intrepid Sea-Air-Space Museum",
      "type": "museum",
      "geolocalisation": [
        {
          "longitude": -73.99960760542811,
          "latitude": 40.764477638914705,
          "isApproximated": false
        }
      ]
    },
    {
      "name": "Irish Hunger Memorial",
      "type": "monument",
      "geolocalisation": [
        {
          "longitude": -74.01637285186165,
          "latitude": 40.71506609050784,
          "isApproximated": false
        }
      ]
    },
    {
      "name": "Irish Memorial",
      "type": "monument",
      "geolocalisation": [
        {
          "longitude": -75.14362721914277,
          "latitude": 39.94453496348198,
          "isApproximated": false
        }
      ]
    },
    {
      "name": "Ithaca Falls",
      "type": "water",
      "geolocalisation": [
        {
          "longitude": -76.49163441791791,
          "latitude": 42.45274216192574,
          "isApproximated": false
        }
      ]
    },
    {
      "name": "J.T. Cheeseman Provincial Park",
      "type": "national-park",
      "geolocalisation": [
        {
          "longitude": -59.253098641025154,
          "latitude": 47.63281613128096,
          "isApproximated": false
        }
      ]
    },
    {
      "name": "Jack Pine Trailhead",
      "type": "walk",
      "geolocalisation": [
        {
          "longitude": -60.33234810693541,
          "latitude": 46.77866704340421,
          "isApproximated": false
        }
      ]
    },
    {
      "name": "James Hook & Co",
      "type": "food",
      "geolocalisation": [
        {
          "longitude": -71.05094339348503,
          "latitude": 42.35497881545462,
          "isApproximated": false
        }
      ]
    },
    {
      "name": "James River Park Pipeline Walkway",
      "type": "urbex",
      "geolocalisation": [
        {
          "longitude": -77.43429793972277,
          "latitude": 37.53254373440276,
          "isApproximated": false
        }
      ]
    },
    {
      "name": "Jean richard shipwrecked",
      "type": "urbex",
      "geolocalisation": [
        {
          "longitude": -75.61597148495429,
          "latitude": 45.50394998877809,
          "isApproximated": true
        }
      ]
    },
    {
      "name": "Jefferson Rock",
      "type": "place",
      "geolocalisation": [
        {
          "longitude": -77.73328155240955,
          "latitude": 39.322593649191724,
          "isApproximated": false
        }
      ]
    },
    {
      "name": "Joe's Pizza Broadway",
      "type": "food",
      "geolocalisation": [
        {
          "longitude": -73.987030159984,
          "latitude": 40.75467880537437,
          "isApproximated": false
        }
      ]
    },
    {
      "name": "John Brown's Fort",
      "type": "building",
      "geolocalisation": [
        {
          "longitude": -77.72953868009867,
          "latitude": 39.323045662679334,
          "isApproximated": false
        }
      ]
    },
    {
      "name": "John Henry Historical Park",
      "type": "park",
      "geolocalisation": [
        {
          "longitude": -80.763009,
          "latitude": 37.6520733,
          "isApproximated": false
        }
      ]
    },
    {
      "name": "Johnny Ro Veterans Memorial Park",
      "type": "monument",
      "geolocalisation": [
        {
          "longitude": -71.72684857325305,
          "latitude": 42.51990906764294,
          "isApproximated": false
        }
      ]
    },
    {
      "name": "Jubilee Park",
      "type": "park",
      "geolocalisation": [
        {
          "longitude": -80.20490605089937,
          "latitude": 43.529455981753735,
          "isApproximated": false
        }
      ]
    },
    {
      "name": "Kane's Donuts in Boston",
      "type": "food",
      "geolocalisation": [
        {
          "longitude": -71.05281971692868,
          "latitude": 42.356253237097704,
          "isApproximated": false
        }
      ]
    },
    {
      "name": "Katz's Delicatessen",
      "type": "food",
      "geolocalisation": [
        {
          "longitude": -73.987412838024,
          "latitude": 40.72224782376024,
          "isApproximated": false
        }
      ]
    },
    {
      "name": "Kaymoor mine",
      "type": "urbex",
      "geolocalisation": [
        {
          "longitude": -81.06618801212569,
          "latitude": 38.047161319384145,
          "isApproximated": false
        }
      ]
    },
    {
      "name": "King's Hollow Tunnel",
      "type": "tunnel",
      "geolocalisation": [
        {
          "longitude": -82.2799832,
          "latitude": 39.3214656,
          "isApproximated": false
        }
      ]
    },
    {
      "name": "Kinzua Bridge",
      "type": "urbex",
      "geolocalisation": [
        {
          "longitude": -78.58711283311695,
          "latitude": 41.75975148937392,
          "isApproximated": false
        }
      ]
    },
    {
      "name": "La bo\u00eete \u00e0 pain",
      "type": "food",
      "geolocalisation": [
        {
          "longitude": -71.30412541319191,
          "latitude": 46.778981045364056,
          "isApproximated": false
        }
      ]
    },
    {
      "name": "La Manche Provincial Park",
      "type": "national-park",
      "geolocalisation": [
        {
          "longitude": -52.88559386902557,
          "latitude": 47.16757342703489,
          "isApproximated": false
        }
      ]
    },
    {
      "name": "La Manche Village",
      "type": "urbex",
      "geolocalisation": [
        {
          "longitude": -52.86739934341076,
          "latitude": 47.16663932680922,
          "isApproximated": false
        }
      ]
    },
    {
      "name": "Lac des am\u00e9ricains",
      "type": "water",
      "geolocalisation": [
        {
          "longitude": -66.02243775024294,
          "latitude": 48.95615901212108,
          "isApproximated": false
        }
      ]
    },
    {
      "name": "Lafayette Square",
      "type": "park",
      "geolocalisation": [
        {
          "longitude": -77.0365732864553,
          "latitude": 38.89952979191805,
          "isApproximated": false
        }
      ]
    },
    {
      "name": "Lake Leigh Dam",
      "type": "urbex",
      "geolocalisation": [
        {
          "longitude": -76.2690263581707,
          "latitude": 41.336103743080656,
          "isApproximated": false
        }
      ]
    },
    {
      "name": "Lake Ontario Park",
      "type": "park",
      "geolocalisation": [
        {
          "longitude": -76.53169731818117,
          "latitude": 44.21808347140912,
          "isApproximated": false
        }
      ]
    },
    {
      "name": "Lakeview Park Oshawa",
      "type": "park",
      "geolocalisation": [
        {
          "longitude": -78.82910571818226,
          "latitude": 43.86237942250389,
          "isApproximated": false
        }
      ]
    },
    {
      "name": "Land Locked Boat",
      "type": "urbex",
      "geolocalisation": [
        {
          "longitude": -74.35760721142462,
          "latitude": 45.139347481387844,
          "isApproximated": true
        }
      ]
    },
    {
      "name": "Lane Motor Museum",
      "type": "museum",
      "geolocalisation": [
        {
          "longitude": -86.73460125771548,
          "latitude": 36.14022249680822,
          "isApproximated": false
        }
      ]
    },
    {
      "name": "LAV III",
      "type": "monument",
      "geolocalisation": [
        {
          "longitude": -76.02505271517961,
          "latitude": 44.90613255470841,
          "isApproximated": false
        }
      ]
    },
    {
      "name": "Le bout du monde",
      "type": "photo",
      "geolocalisation": [
        {
          "longitude": -64.16002436623644,
          "latitude": 48.751538775184066,
          "isApproximated": false
        }
      ]
    },
    {
      "name": "Le Petit Sao",
      "type": "food",
      "geolocalisation": [
        {
          "longitude": -73.56210344816013,
          "latitude": 45.482775178528804,
          "isApproximated": false
        }
      ]
    },
    {
      "name": "Leetonia Beehive Coke Ovens Park",
      "type": "park",
      "geolocalisation": [
        {
          "longitude": -80.75583837196456,
          "latitude": 40.88586993783106,
          "isApproximated": false
        }
      ]
    },
    {
      "name": "Lenin Statue",
      "type": "monument",
      "geolocalisation": [
        {
          "longitude": -73.98573415136536,
          "latitude": 40.72134453057622,
          "isApproximated": false
        }
      ]
    },
    {
      "name": "Les Bateaux de Croisi\u00e8res Julien Cloutier",
      "type": "ferry",
      "geolocalisation": [
        {
          "longitude": -64.21324,
          "latitude": 48.52158,
          "isApproximated": false
        }
      ]
    },
    {
      "name": "Les Moulins La Fayette",
      "type": "food",
      "geolocalisation": [
        {
          "longitude": -71.29634226198229,
          "latitude": 46.83540023769064,
          "isApproximated": false
        }
      ]
    },
    {
      "name": "Lester B. Pearson Park",
      "type": "park",
      "geolocalisation": [
        {
          "longitude": -79.22522727645791,
          "latitude": 43.182971232087546,
          "isApproximated": false
        }
      ]
    },
    {
      "name": "Letchworth State Park",
      "type": "national-park",
      "geolocalisation": [
        {
          "longitude": -78.0381508797638,
          "latitude": 42.58654005840392,
          "isApproximated": false
        }
      ]
    },
    {
      "name": "Levain Bakery",
      "type": "food",
      "geolocalisation": [
        {
          "longitude": -73.95526014344932,
          "latitude": 40.77734813455974,
          "isApproximated": false
        }
      ]
    },
    {
      "name": "Liberty Bell Center",
      "type": "museum",
      "geolocalisation": [
        {
          "longitude": -75.15027983952939,
          "latitude": 39.949608611173225,
          "isApproximated": false
        }
      ]
    },
    {
      "name": "Liberty Park",
      "type": "park",
      "geolocalisation": [
        {
          "longitude": -74.01376523410237,
          "latitude": 40.710385329611704,
          "isApproximated": false
        }
      ]
    },
    {
      "name": "Library of Congress",
      "type": "building",
      "geolocalisation": [
        {
          "longitude": -77.00471532317593,
          "latitude": 38.888671941380935,
          "isApproximated": false
        }
      ]
    },
    {
      "name": "Life of the Forest Trail",
      "type": "walk",
      "geolocalisation": [
        {
          "longitude": -75.15790500800486,
          "latitude": 38.19795608452175,
          "isApproximated": false
        }
      ]
    },
    {
      "name": "Life of the Marsh Trail",
      "type": "walk",
      "geolocalisation": [
        {
          "longitude": -75.16011705754241,
          "latitude": 38.206863674536315,
          "isApproximated": false
        }
      ]
    },
    {
      "name": "Lightship Overfalls LV-118",
      "type": "boat",
      "geolocalisation": [
        {
          "longitude": -75.1412212,
          "latitude": 38.7779239,
          "isApproximated": false
        }
      ]
    },
    {
      "name": "Lincoln Memorial",
      "type": "monument",
      "geolocalisation": [
        {
          "longitude": -77.05013308531953,
          "latitude": 38.8892601913376,
          "isApproximated": false
        }
      ]
    },
    {
      "name": "Lincoln Park",
      "type": "park",
      "geolocalisation": [
        {
          "longitude": -70.25500457171141,
          "latitude": 43.65966736469193,
          "isApproximated": false
        }
      ]
    },
    {
      "name": "Little Island",
      "type": "park",
      "geolocalisation": [
        {
          "longitude": -74.01030822859947,
          "latitude": 40.74199288691625,
          "isApproximated": false
        }
      ]
    },
    {
      "name": "Long Lake Provincial Park",
      "type": "national-park",
      "geolocalisation": [
        {
          "longitude": -63.62637545921966,
          "latitude": 44.62174540690773,
          "isApproximated": false
        }
      ]
    },
    {
      "name": "Long Wharf",
      "type": "place",
      "geolocalisation": [
        {
          "longitude": -71.0480247468261,
          "latitude": 42.360230790952166,
          "isApproximated": false
        }
      ]
    },
    {
      "name": "Lookout Mountain Incline Railway",
      "type": "train",
      "geolocalisation": [
        {
          "longitude": -85.32857453407392,
          "latitude": 35.00954212639109,
          "isApproximated": false
        }
      ]
    },
    {
      "name": "Lookout Mountain",
      "type": "photo",
      "geolocalisation": [
        {
          "longitude": -85.34334554667875,
          "latitude": 35.00593559614244,
          "isApproximated": false
        }
      ]
    },
    {
      "name": "Lookout Park",
      "type": "park",
      "geolocalisation": [
        {
          "longitude": -79.38224674027984,
          "latitude": 44.923084690362145,
          "isApproximated": false
        }
      ]
    },
    {
      "name": "Louis Valentino, Jr. Park and Pier",
      "type": "park",
      "geolocalisation": [
        {
          "longitude": -74.01816581687493,
          "latitude": 40.678420916292644,
          "isApproximated": false
        }
      ]
    },
    {
      "name": "Louisville Knot",
      "type": "art",
      "geolocalisation": [
        {
          "longitude": -85.76531608269097,
          "latitude": 38.25747560706904,
          "isApproximated": false
        }
      ]
    },
    {
      "name": "Lowell National Historical Park",
      "type": "museum",
      "geolocalisation": [
        {
          "longitude": -71.3133358153858,
          "latitude": 42.64438970325733,
          "isApproximated": false
        }
      ]
    },
    {
      "name": "Lowell Riverwalk",
      "type": "walk",
      "geolocalisation": [
        {
          "longitude": -71.30290445341531,
          "latitude": 42.64657463579361,
          "isApproximated": false
        }
      ]
    },
    {
      "name": "Lunenburg Waterfront",
      "type": "water",
      "geolocalisation": [
        {
          "longitude": -64.31098048469703,
          "latitude": 44.37595159861407,
          "isApproximated": false
        }
      ]
    },
    {
      "name": "M-41 Walker Bulldog Tank",
      "type": "monument",
      "geolocalisation": [
        {
          "longitude": -81.24793461264287,
          "latitude": 37.247304090713556,
          "isApproximated": false
        }
      ]
    },
    {
      "name": "Madame Sherri's Castle",
      "type": "urbex",
      "geolocalisation": [
        {
          "longitude": -72.51830420245804,
          "latitude": 42.864319322212985,
          "isApproximated": false
        }
      ]
    },
    {
      "name": "Madison Square Park",
      "type": "park",
      "geolocalisation": [
        {
          "longitude": -73.98806104650404,
          "latitude": 40.74215229949734,
          "isApproximated": false
        }
      ]
    },
    {
      "name": "Magnolia Bakery",
      "type": "food",
      "geolocalisation": [
        {
          "longitude": -73.98028338127854,
          "latitude": 40.77567631674818,
          "isApproximated": false
        },
        {
          "longitude": -73.97680659399086,
          "latitude": 40.75257840874212,
          "isApproximated": false
        }
      ]
    },
    {
      "name": "Maine Narrow Gauge Railroad",
      "type": "train",
      "geolocalisation": [
        {
          "longitude": -70.24571489551656,
          "latitude": 43.66075005810133,
          "isApproximated": false
        }
      ]
    },
    {
      "name": "Major Rudolph Anderson Memorial",
      "type": "monument",
      "geolocalisation": [
        {
          "longitude": -82.3944084,
          "latitude": 34.8413807,
          "isApproximated": false
        }
      ]
    },
    {
      "name": "Mammoth Cave National Park",
      "type": "national-park",
      "geolocalisation": [
        {
          "longitude": -86.0999576284014,
          "latitude": 37.18618635007565,
          "isApproximated": false
        }
      ]
    },
    {
      "name": "Marie Joseph Boat Yard",
      "type": "urbex",
      "geolocalisation": [
        {
          "longitude": -62.079980633116385,
          "latitude": 44.96541210463011,
          "isApproximated": false
        }
      ]
    },
    {
      "name": "Marie Joseph Provincial Park",
      "type": "national-park",
      "geolocalisation": [
        {
          "longitude": -62.08674334780176,
          "latitude": 44.96747252755073,
          "isApproximated": false
        }
      ]
    },
    {
      "name": "Marion Steam Shovel",
      "type": "place",
      "geolocalisation": [
        {
          "longitude": -77.9383155,
          "latitude": 42.992526,
          "isApproximated": false
        }
      ]
    },
    {
      "name": "Maritime Museum of the Atlantic",
      "type": "museum",
      "geolocalisation": [
        {
          "longitude": -63.57067217237865,
          "latitude": 44.647457730731176,
          "isApproximated": false
        }
      ]
    },
    {
      "name": "Marshall Street",
      "type": "street",
      "geolocalisation": [
        {
          "longitude": -71.05693008840218,
          "latitude": 42.361580823763894,
          "isApproximated": false
        }
      ]
    },
    {
      "name": "Metropolitan Museum of Art",
      "type": "museum",
      "geolocalisation": [
        {
          "longitude": -73.9632780645902,
          "latitude": 40.77945248224612,
          "isApproximated": false
        }
      ]
    },
    {
      "name": "Metropolitan State Hospital",
      "type": "urbex",
      "geolocalisation": [
        {
          "longitude": -71.2136523,
          "latitude": 42.4054585,
          "isApproximated": false
        }
      ]
    },
    {
      "name": "Metropolitan Waterworks Museum",
      "type": "museum",
      "geolocalisation": [
        {
          "longitude": -71.15562917963265,
          "latitude": 42.33181020103054,
          "isApproximated": false
        }
      ]
    },
    {
      "name": "Mich Caf\u00e9",
      "type": "food",
      "geolocalisation": [
        {
          "longitude": -64.68459651074023,
          "latitude": 48.34829819124516,
          "isApproximated": false
        }
      ]
    },
    {
      "name": "Military Aviation Museum",
      "type": "museum",
      "geolocalisation": [
        {
          "longitude": -76.0281427305115,
          "latitude": 36.67900152688979,
          "isApproximated": false
        }
      ]
    },
    {
      "name": "Mlc Test Fence Site 012 Ruins",
      "type": "urbex",
      "geolocalisation": [
        {
          "longitude": -75.60457629329902,
          "latitude": 45.22586246888809,
          "isApproximated": true
        }
      ]
    },
    {
      "name": "Mohawk Valley B-52 Memorial",
      "type": "plane",
      "geolocalisation": [
        {
          "longitude": -75.42616300078146,
          "latitude": 43.226513810963624,
          "isApproximated": false
        }
      ]
    },
    {
      "name": "Mont Xalibu",
      "type": "walk",
      "geolocalisation": [
        {
          "longitude": -66.0169582938948,
          "latitude": 48.9669253270666,
          "isApproximated": false
        }
      ]
    },
    {
      "name": "Moo Moo Express Car Wash",
      "type": "service",
      "geolocalisation": [
        {
          "longitude": -83.0299663894694,
          "latitude": 39.98858170269736,
          "isApproximated": false
        }
      ]
    },
    {
      "name": "Moonville Tunnel",
      "type": "tunnel",
      "geolocalisation": [
        {
          "longitude": -82.32194346141218,
          "latitude": 39.307123978243844,
          "isApproximated": false
        }
      ]
    },
    {
      "name": "Moshulu",
      "type": "boat",
      "geolocalisation": [
        {
          "longitude": -75.14106042191855,
          "latitude": 39.942321925135936,
          "isApproximated": false
        }
      ]
    },
    {
      "name": "Murphys Point Provincial Park",
      "type": "national-park",
      "geolocalisation": [
        {
          "longitude": -76.23750843598833,
          "latitude": 44.78188331628461,
          "isApproximated": false
        }
      ]
    },
    {
      "name": "Murphy's Point Trail",
      "type": "walk",
      "geolocalisation": [
        {
          "longitude": -76.21703373403167,
          "latitude": 44.78080566892118,
          "isApproximated": false
        }
      ]
    },
    {
      "name": "Museum of Fine Arts, Boston",
      "type": "museum",
      "geolocalisation": [
        {
          "longitude": -71.09405872937539,
          "latitude": 42.33938094263324,
          "isApproximated": false
        }
      ]
    },
    {
      "name": "Mus\u00e9e Bor\u00e9alis",
      "type": "museum",
      "geolocalisation": [
        {
          "longitude": -72.53221579108376,
          "latitude": 46.348582243648075,
          "isApproximated": false
        }
      ]
    },
    {
      "name": "Mus\u00e9e de la civilisation",
      "type": "museum",
      "geolocalisation": [
        {
          "longitude": -71.2023149300761,
          "latitude": 46.815344252819536,
          "isApproximated": false
        }
      ]
    },
    {
      "name": "Mus\u00e9e de pointe-\u00e0-Calli\u00e8re",
      "type": "museum",
      "geolocalisation": [
        {
          "longitude": -73.55418114932368,
          "latitude": 45.50263065,
          "isApproximated": false
        }
      ]
    },
    {
      "name": "Mutual Riverfront Park",
      "type": "park",
      "geolocalisation": [
        {
          "longitude": -78.8599892919846,
          "latitude": 42.86425940977567,
          "isApproximated": false
        }
      ]
    },
    {
      "name": "N.C. Transportation Museum",
      "type": "museum",
      "geolocalisation": [
        {
          "longitude": -80.42970957129553,
          "latitude": 35.69038384477756,
          "isApproximated": false
        }
      ]
    },
    {
      "name": "NASA's Wallops Flight Facility Visitor Center",
      "type": "building",
      "geolocalisation": [
        {
          "longitude": -75.45745890019417,
          "latitude": 37.938295705450535,
          "isApproximated": false
        }
      ]
    },
    {
      "name": "National Air Force Museum of Canada",
      "type": "museum",
      "geolocalisation": [
        {
          "longitude": -77.55075833080774,
          "latitude": 44.115847393513974,
          "isApproximated": false
        }
      ]
    },
    {
      "name": "National Gallery of Art",
      "type": "museum",
      "geolocalisation": [
        {
          "longitude": -77.01999144440761,
          "latitude": 38.89128814155415,
          "isApproximated": false
        }
      ]
    },
    {
      "name": "National Museum of the United States Air Force",
      "type": "museum",
      "geolocalisation": [
        {
          "longitude": -84.10922527313234,
          "latitude": 39.781266877954984,
          "isApproximated": false
        }
      ]
    },
    {
      "name": "National World War II Memorial",
      "type": "monument",
      "geolocalisation": [
        {
          "longitude": -77.04053285549112,
          "latitude": 38.889397026345776,
          "isApproximated": false
        }
      ]
    },
    {
      "name": "NCSM Haida",
      "type": "boat",
      "geolocalisation": [
        {
          "longitude": -79.8556837,
          "latitude": 43.275405,
          "isApproximated": false
        }
      ]
    },
    {
      "name": "Nelsonville Brick Park",
      "type": "park",
      "geolocalisation": [
        {
          "longitude": -82.24795647289527,
          "latitude": 39.45904910583391,
          "isApproximated": false
        }
      ]
    },
    {
      "name": "Neversink Pit",
      "type": "cave",
      "geolocalisation": [
        {
          "longitude": -86.00858466087638,
          "latitude": 34.80028647687383,
          "isApproximated": false
        }
      ]
    },
    {
      "name": "New Hope and Ivyland's 3028",
      "type": "urbex",
      "geolocalisation": [
        {
          "longitude": -74.9254958300221,
          "latitude": 40.424640272247075,
          "isApproximated": true
        }
      ]
    },
    {
      "name": "New Hope Railroad",
      "type": "train",
      "geolocalisation": [
        {
          "longitude": -74.95310292882918,
          "latitude": 40.364290967813005,
          "isApproximated": false
        }
      ]
    },
    {
      "name": "New River Gorge Bridge Overlook",
      "type": "photo",
      "geolocalisation": [
        {
          "longitude": -81.07807674550659,
          "latitude": 38.07086328689296,
          "isApproximated": false
        }
      ]
    },
    {
      "name": "New York Fries Quinte Mall",
      "type": "food",
      "geolocalisation": [
        {
          "longitude": -77.40205609802753,
          "latitude": 44.189223766795074,
          "isApproximated": false
        }
      ]
    },
    {
      "name": "New York LaGuardia Planeview Park",
      "type": "photo",
      "geolocalisation": [
        {
          "longitude": -73.88512620650687,
          "latitude": 40.76721120319859,
          "isApproximated": false
        }
      ]
    },
    {
      "name": "New York Public Library",
      "type": "building",
      "geolocalisation": [
        {
          "longitude": -73.98226455699316,
          "latitude": 40.75318019643165,
          "isApproximated": false
        }
      ]
    },
    {
      "name": "New York Stock Exchange",
      "type": "building",
      "geolocalisation": [
        {
          "longitude": -74.01095394151491,
          "latitude": 40.70681496170665,
          "isApproximated": false
        }
      ]
    },
    {
      "name": "New York Transit Museum",
      "type": "museum",
      "geolocalisation": [
        {
          "longitude": -73.9900892599035,
          "latitude": 40.69056166110836,
          "isApproximated": false
        }
      ]
    },
    {
      "name": "Niagara Falls State Park",
      "type": "national-park",
      "geolocalisation": [
        {
          "longitude": -79.06776001463284,
          "latitude": 43.08602844780315,
          "isApproximated": false
        }
      ]
    },
    {
      "name": "Niagara Mohawk Building",
      "type": "building",
      "geolocalisation": [
        {
          "longitude": -76.15615488447125,
          "latitude": 43.051136287303876,
          "isApproximated": false
        }
      ]
    },
    {
      "name": "Ninigret Troll No. 1",
      "type": "art",
      "geolocalisation": [
        {
          "longitude": -71.66189570498969,
          "latitude": 41.367346721585264,
          "isApproximated": false
        }
      ]
    },
    {
      "name": "Ninigret Troll No. 2",
      "type": "art",
      "geolocalisation": [
        {
          "longitude": -71.66161296686428,
          "latitude": 41.3721094130551,
          "isApproximated": false
        }
      ]
    },
    {
      "name": "No. 9 Coal Mine and Museum",
      "type": "museum",
      "geolocalisation": [
        {
          "longitude": -75.89703847954029,
          "latitude": 40.82869943317153,
          "isApproximated": false
        }
      ]
    },
    {
      "name": "Noble Beast Brewing Co.",
      "type": "food",
      "geolocalisation": [
        {
          "longitude": -81.68655058432759,
          "latitude": 41.50786889058146,
          "isApproximated": false
        }
      ]
    },
    {
      "name": "North Alabama Railroad Museum",
      "type": "museum",
      "geolocalisation": [
        {
          "longitude": -86.54625084425697,
          "latitude": 34.783569457601565,
          "isApproximated": false
        }
      ]
    },
    {
      "name": "North Atlantic Aviation Museum",
      "type": "museum",
      "geolocalisation": [
        {
          "longitude": -54.6232499,
          "latitude": 48.9522883,
          "isApproximated": false
        }
      ]
    },
    {
      "name": "NRA National Firearms Museum",
      "type": "museum",
      "geolocalisation": [
        {
          "longitude": -77.3355221580112,
          "latitude": 38.862981983761586,
          "isApproximated": false
        }
      ]
    },
    {
      "name": "Nuttallburg Coal Tipple",
      "type": "urbex",
      "geolocalisation": [
        {
          "longitude": -81.04256982883199,
          "latitude": 38.050534675709436,
          "isApproximated": false
        }
      ]
    },
    {
      "name": "Nuttallburg Headhouse",
      "type": "urbex",
      "geolocalisation": [
        {
          "longitude": -81.04156895248612,
          "latitude": 38.05398567001157,
          "isApproximated": false
        }
      ]
    },
    {
      "name": "Old Mill House",
      "type": "water",
      "geolocalisation": [
        {
          "longitude": -75.18350792811275,
          "latitude": 39.96647163528636,
          "isApproximated": false
        }
      ]
    },
    {
      "name": "Old Northern Ave Bridge",
      "type": "urbex",
      "geolocalisation": [
        {
          "longitude": -71.04939433147146,
          "latitude": 42.35447450735993,
          "isApproximated": false
        }
      ]
    },
    {
      "name": "Old rail bridge crossing",
      "type": "urbex",
      "geolocalisation": [
        {
          "longitude": -80.20417621934261,
          "latitude": 43.55052242525747,
          "isApproximated": false
        }
      ]
    },
    {
      "name": "Old Sawmill Remains",
      "type": "urbex",
      "geolocalisation": [
        {
          "longitude": -79.84048168954186,
          "latitude": 38.40775959930541,
          "isApproximated": true
        }
      ]
    },
    {
      "name": "Old State House",
      "type": "building",
      "geolocalisation": [
        {
          "longitude": -71.0574549557629,
          "latitude": 42.35873450736285,
          "isApproximated": false
        }
      ]
    },
    {
      "name": "Old Wife",
      "type": "photo",
      "geolocalisation": [
        {
          "longitude": -64.06222212056821,
          "latitude": 45.38912199703855,
          "isApproximated": false
        }
      ]
    },
    {
      "name": "One World Trade Center",
      "type": "building",
      "geolocalisation": [
        {
          "longitude": -74.01336130665923,
          "latitude": 40.712737509920345,
          "isApproximated": false
        }
      ]
    },
    {
      "name": "Ontario Regiment Museum",
      "type": "museum",
      "geolocalisation": [
        {
          "longitude": -78.89528129279961,
          "latitude": 43.91678440458797,
          "isApproximated": false
        }
      ]
    },
    {
      "name": "Optimist Hall",
      "type": "building",
      "geolocalisation": [
        {
          "longitude": -80.82691049848337,
          "latitude": 35.234418229089705,
          "isApproximated": false
        }
      ]
    },